City ID,City,Country,Lat,Lng,Max Temp,Humidity,Cloudiness,Wind Speed,Date
0,tikapur,NP,28.5,81.13,78.01,95,0,3.0,1602856784
1,kavieng,PG,-2.57,150.8,82.04,77,97,12.53,1602856855
2,busselton,AU,-33.65,115.33,55.99,51,0,14.12,1602856857
3,launceston,AU,-41.45,147.17,44.6,70,90,1.12,1602856592
4,lebu,CL,-37.62,-73.65,58.48,70,0,3.96,1602856859
5,albany,US,42.6,-73.97,53.01,88,100,0.69,1602856808
6,zarand,IR,30.81,56.56,55.69,26,0,6.67,1602856862
7,san patricio,US,28.02,-97.52,66.2,77,90,18.34,1602856863
8,bredasdorp,ZA,-34.53,20.04,71.6,60,0,19.46,1602856864
9,butaritari,KI,3.07,172.79,81.93,74,0,13.78,1602856865
10,hasaki,JP,35.73,140.83,60.8,77,75,12.75,1602856866
11,kuminskiy,RU,58.67,66.57,50.22,77,100,12.06,1602856868
12,iqaluit,CA,63.75,-68.51,33.8,100,90,4.7,1602856728
13,vaini,TO,-21.2,-175.2,75.2,94,90,2.24,1602856870
14,mataura,NZ,-46.19,168.86,43.0,82,59,3.0,1602856871
15,cherskiy,RU,68.75,161.3,27.1,94,46,3.53,1602856872
16,ushuaia,AR,-54.8,-68.3,44.6,66,20,17.22,1602856874
17,adjumani,UG,3.38,31.79,84.36,62,63,3.15,1602856875
18,wapakoneta,US,40.57,-84.19,42.01,69,1,4.7,1602856762
19,vila do maio,CV,15.13,-23.22,87.8,62,20,9.17,1602856877
20,bluff,NZ,-46.6,168.33,43.0,82,29,3.0,1602856878
21,leningradskiy,RU,69.38,178.42,35.22,91,100,14.34,1602856879
22,atuona,PF,-9.8,-139.03,78.37,77,1,18.37,1602856881
23,bitung,ID,1.45,125.18,77.0,94,20,2.24,1602856882
24,scarborough,GB,54.28,-0.4,53.01,75,65,4.0,1602856803
25,oksfjord,NO,70.24,22.35,37.4,86,90,3.36,1602856884
26,rikitea,PF,-23.12,-134.97,73.51,79,100,17.18,1602856885
27,ayan,RU,56.45,138.17,31.91,87,24,8.39,1602856887
28,kamenka,RU,51.32,42.77,66.99,47,100,11.14,1602856888
29,constitucion,CL,-35.33,-72.42,58.86,74,3,12.26,1602856889
30,mar del plata,AR,-38.0,-57.56,62.6,88,75,14.99,1602856723
31,tuktoyaktuk,CA,69.45,-133.04,21.2,85,90,24.16,1602856892
32,jamestown,US,42.1,-79.24,43.0,100,90,3.36,1602856893
33,kavaratti,IN,10.57,72.64,81.59,78,0,16.02,1602856895
34,diffa,NE,13.32,12.61,103.6,11,2,14.47,1602856896
35,sembakung,ID,3.82,117.25,75.79,89,100,0.98,1602856897
36,laxou,FR,48.68,6.15,51.8,76,90,9.17,1602856898
37,nanortalik,GL,60.14,-45.24,42.48,77,47,11.01,1602856900
38,northam,GB,51.03,-4.22,55.99,69,25,3.0,1602856901
39,bonavista,CA,48.65,-53.11,50.0,80,0,1.99,1602856902
40,petatlan,MX,17.52,-101.27,78.8,83,40,3.62,1602856904
41,port alfred,ZA,-33.59,26.89,68.2,76,93,28.63,1602856905
42,belaya gora,RU,68.53,146.42,24.24,98,100,16.04,1602856906
43,sychevka,RU,55.83,34.27,41.95,70,48,8.86,1602856907
44,herat,AF,34.5,62.0,68.0,19,0,9.17,1602856908
45,yellandu,IN,17.6,80.33,78.22,85,100,0.98,1602856909
46,hermanus,ZA,-34.42,19.23,84.0,43,0,4.0,1602856910
47,chara,RU,56.91,118.26,25.63,90,95,8.39,1602856913
48,carnarvon,AU,-24.87,113.63,69.8,77,0,25.28,1602856914
49,batesville,US,35.77,-91.64,48.0,75,20,4.38,1602856692
50,koriyama,JP,37.4,140.38,55.0,77,100,2.08,1602856916
51,katsuura,JP,35.13,140.3,62.6,72,75,11.41,1602856917
52,marica,BR,-22.92,-42.82,77.0,61,75,8.05,1602856918
53,dikson,RU,73.51,80.55,28.65,97,100,9.4,1602856919
54,qaanaaq,GL,77.48,-69.36,23.61,81,1,7.65,1602856920
55,nesna,NO,66.2,13.02,48.2,87,75,11.41,1602856921
56,thompson,CA,55.74,-97.86,24.8,92,75,14.99,1602856923
57,punta arenas,CL,-53.15,-70.92,42.8,87,75,9.17,1602856924
58,cabo san lucas,MX,22.89,-109.91,73.4,73,5,3.36,1602856925
59,tshela,CD,-4.98,12.93,84.7,57,98,4.7,1602856928
60,chicama,PE,-7.84,-79.15,60.8,87,90,6.93,1602856929
61,gizo,SB,-8.1,156.84,81.7,74,4,4.03,1602856931
62,metro,ID,-5.11,105.31,77.68,89,100,8.34,1602856834
63,guiyang,CN,26.58,106.72,53.6,87,90,8.95,1602856660
64,guerrero negro,MX,27.98,-114.06,71.13,70,0,9.06,1602856935
65,kutum,SD,14.2,24.67,89.67,12,0,6.04,1602856937
66,vanimo,PG,-2.67,141.3,75.79,89,100,7.14,1602856939
67,fort nelson,CA,58.81,-122.7,23.0,92,90,4.7,1602856940
68,liepaja,LV,56.54,21.04,50.0,61,84,8.05,1602856814
69,okhotsk,RU,59.38,143.3,26.8,86,0,6.98,1602856942
70,arraial do cabo,BR,-22.97,-42.03,75.2,73,75,12.75,1602856943
71,vila franca do campo,PT,37.72,-25.43,69.8,77,75,10.29,1602856944
72,geraldton,AU,-28.77,114.6,66.2,72,1,21.92,1602856946
73,tucuma,BR,-0.18,-50.05,86.05,60,95,7.27,1602856947
74,chernihiv,UA,51.0,32.0,54.72,68,100,3.15,1602856948
75,bubaque,GW,11.28,-15.83,83.08,79,100,7.16,1602856949
76,ilulissat,GL,69.22,-51.1,44.6,52,75,16.11,1602856950
77,kolosovka,RU,56.47,73.61,49.39,56,39,16.33,1602856951
78,nikolskoye,RU,59.7,30.79,43.0,60,75,11.18,1602856952
79,mahebourg,MU,-20.41,57.7,78.8,65,20,11.41,1602856954
80,deblin,PL,51.56,21.85,50.0,46,100,2.64,1602856955
81,roald,NO,62.58,6.13,50.0,81,4,6.93,1602856956
82,san quintin,MX,30.48,-115.95,69.71,59,12,6.42,1602856957
83,san juan,AR,-31.54,-68.54,80.91,31,0,9.62,1602856958
84,yonibana,SL,8.44,-12.24,86.61,70,80,2.8,1602856959
85,kurumkan,RU,54.3,110.3,28.08,88,11,9.62,1602856960
86,tasiilaq,GL,65.61,-37.64,39.2,93,75,3.36,1602856961
87,pakxan,LA,18.38,103.66,76.55,78,100,8.19,1602856963
88,banff,CA,51.18,-115.57,30.0,82,100,7.36,1602856964
89,aluksne,LV,57.42,27.05,40.82,78,92,5.21,1602856965
90,upernavik,GL,72.79,-56.15,36.95,74,100,6.64,1602856966
91,los llanos de aridane,ES,28.66,-17.92,75.2,69,75,6.93,1602856807
92,george,ZA,-33.96,22.46,69.8,73,0,11.41,1602856968
93,grand baie,MU,-20.02,57.58,77.0,68,7,5.99,1602856969
94,winnemucca,US,40.97,-117.74,28.4,42,1,6.93,1602856970
95,mount isa,AU,-20.73,139.5,75.2,31,0,8.63,1602856972
96,atbasar,KZ,51.8,68.33,55.74,38,100,11.95,1602856973
97,petropavlovsk-kamchatskiy,RU,53.05,158.65,32.0,82,40,2.24,1602856974
98,cape town,ZA,-33.93,18.42,82.4,26,0,13.87,1602856859
99,chokurdakh,RU,70.63,147.92,32.04,99,100,10.0,1602856976
100,praia da vitoria,PT,38.73,-27.07,66.2,88,75,12.59,1602856977
101,sosva,RU,59.18,61.86,47.95,73,80,12.68,1602856978
102,itarema,BR,-2.92,-39.92,88.23,52,39,17.72,1602856979
103,bilma,NE,18.69,12.92,103.15,9,0,7.34,1602856980
104,hobart,AU,-42.88,147.33,46.4,65,100,6.93,1602856870
105,hithadhoo,MV,-0.6,73.08,83.84,74,93,20.42,1602856982
106,anadyr,RU,64.75,177.48,39.2,86,98,11.18,1602856983
107,clarence town,AU,-32.58,151.78,66.0,88,90,4.7,1602856984
108,avarua,CK,-21.21,-159.78,69.8,77,100,5.82,1602856985
109,megion,RU,61.03,76.11,37.4,91,100,13.42,1602856988
110,dabou,CI,5.33,-4.38,82.4,78,40,12.75,1602856989
111,bekhtery,UA,46.25,32.29,69.8,68,40,11.18,1602856990
112,awjilah,LY,29.11,21.29,97.99,13,0,9.71,1602856992
113,khatanga,RU,71.97,102.5,-2.25,92,0,3.31,1602856993
114,lakes entrance,AU,-37.88,147.98,57.0,96,100,1.01,1602856994
115,havelock,US,34.88,-76.9,77.0,88,5,7.94,1602856871
116,pangnirtung,CA,66.15,-65.71,35.6,73,90,2.24,1602856996
117,tura,IN,25.52,90.22,75.36,93,0,3.02,1602856998
118,kurilsk,RU,45.23,147.88,49.84,72,73,14.7,1602856999
119,syracuse,IT,37.09,15.28,75.0,56,20,9.17,1602857000
120,salalah,OM,17.02,54.09,84.2,70,0,9.17,1602856895
121,saint george,US,37.1,-113.58,59.0,15,1,17.22,1602856916
122,pevek,RU,69.7,170.31,37.51,82,78,13.4,1602857003
123,halifax,CA,44.65,-63.57,61.0,87,20,10.29,1602857004
124,guamuchil,MX,25.47,-108.1,73.99,89,4,1.01,1602856799
125,veraval,IN,20.9,70.37,84.99,77,100,10.54,1602857007
126,nanchang,CN,28.68,115.88,60.51,86,100,11.32,1602857008
127,ixtapa,MX,20.7,-105.2,84.0,94,90,4.7,1602857009
128,lagoa,PT,39.05,-27.98,65.34,81,84,13.29,1602857010
129,cidreira,BR,-30.18,-50.21,68.14,68,8,15.26,1602857012
130,luohe,CN,33.57,114.04,58.37,51,0,5.01,1602857013
131,maniitsoq,GL,65.42,-52.9,41.61,90,100,24.87,1602857014
132,kapaa,US,22.08,-159.32,73.4,100,75,5.82,1602856866
133,dongtai,CN,32.85,120.31,56.1,84,0,3.2,1602857017
134,port victoria,KE,0.09,33.98,78.03,60,0,8.55,1602857018
135,bambous virieux,MU,-20.34,57.76,78.8,65,20,11.41,1602857019
136,olinda,BR,-8.01,-34.86,82.51,63,97,12.01,1602857020
137,yellowknife,CA,62.46,-114.35,24.01,85,75,13.87,1602856728
138,humen,CN,22.82,113.67,84.2,58,16,15.66,1602857022
139,dunedin,NZ,-45.87,170.5,44.01,82,71,1.01,1602856770
140,tairua,NZ,-37.02,175.85,48.99,71,0,4.0,1602857024
141,sorland,NO,67.67,12.69,44.6,81,90,9.17,1602857025
142,barrow,US,71.29,-156.79,17.6,72,20,17.22,1602857027
143,yar-sale,RU,66.83,70.83,32.11,96,100,14.97,1602857028
144,castro,BR,-24.79,-50.01,68.49,60,0,8.43,1602856851
145,progreso,MX,21.28,-89.67,82.0,88,5,2.39,1602856951
146,faanui,PF,-16.48,-151.75,78.35,80,30,8.28,1602857031
147,mogadishu,SO,2.04,45.34,84.2,66,40,14.99,1602856901
148,kwinana,AU,-32.25,115.77,63.0,67,0,10.29,1602857033
149,stromness,GB,58.97,-3.3,48.2,81,90,9.17,1602857034
150,marsh harbour,BS,26.54,-77.06,82.38,78,100,10.36,1602856814
151,ribeira grande,PT,38.52,-28.7,73.4,69,20,13.87,1602857036
152,simbahan,PH,6.3,120.58,79.34,88,100,20.6,1602857038
153,isangel,VU,-19.55,169.27,69.22,83,100,11.92,1602857039
154,sangueya,GN,10.7,-14.37,92.46,57,99,2.28,1602857040
155,padang,ID,-0.95,100.35,79.16,77,55,3.2,1602857041
156,abu dhabi,AE,24.47,54.37,91.4,31,0,11.41,1602857043
157,port elizabeth,ZA,-33.92,25.57,68.0,77,40,24.16,1602857044
158,tiksi,RU,71.69,128.87,21.69,97,98,5.79,1602857045
159,ust-maya,RU,60.42,134.53,15.6,93,79,3.24,1602857046
160,kushiro,JP,42.98,144.37,46.36,68,100,1.61,1602857047
161,mancio lima,BR,-7.61,-72.9,83.12,63,95,2.08,1602857048
162,atar,MR,20.52,-13.05,100.22,14,0,15.43,1602857049
163,hilo,US,19.73,-155.09,73.4,73,40,5.82,1602857050
164,airai,TL,-8.93,125.41,61.45,93,90,0.89,1602857051
165,vardo,NO,70.37,31.11,32.0,77,40,11.41,1602857053
166,tingi,TZ,-11.3,35.03,74.57,59,32,4.97,1602857054
167,trincomalee,LK,8.57,81.23,83.62,65,77,10.89,1602857055
168,kahului,US,20.89,-156.47,73.0,73,1,3.36,1602856809
169,ponta do sol,PT,32.67,-17.1,73.4,56,40,11.41,1602856770
170,zunyi,CN,27.69,106.91,52.5,91,100,3.96,1602857059
171,namibe,AO,-15.2,12.15,80.6,65,53,17.22,1602857060
172,sabang,ID,5.89,95.32,83.14,76,48,20.04,1602857061
173,makakilo city,US,21.35,-158.09,77.0,94,20,3.36,1602857014
174,mitu,CO,1.2,-70.17,81.54,82,81,2.35,1602857063
175,ostrovnoy,RU,68.05,39.51,36.59,79,100,20.78,1602857064
176,meulaboh,ID,4.14,96.13,78.98,83,77,1.07,1602857066
177,gourcy,BF,13.22,-2.35,100.15,20,29,8.52,1602857067
178,caravelas,BR,-17.71,-39.25,75.74,87,99,7.81,1602857068
179,severo-kurilsk,RU,50.68,156.12,42.26,68,37,24.58,1602857069
180,kysyl-syr,RU,63.9,122.76,24.67,97,100,5.77,1602857070
181,kolvereid,NO,64.87,11.6,46.4,93,75,11.41,1602857071
182,okakarara,NA,-20.58,17.43,96.13,9,82,11.07,1602857072
183,medina del campo,ES,41.31,-4.91,57.0,40,20,2.24,1602857073
184,fort-shevchenko,KZ,44.51,50.26,62.42,63,0,12.88,1602857074
185,adeje,ES,28.12,-16.73,78.01,61,20,19.46,1602857075
186,pisco,PE,-13.7,-76.22,64.4,82,40,6.93,1602857076
187,bengkulu,ID,-3.8,102.27,78.44,85,100,3.76,1602857078
188,saint-philippe,RE,-21.36,55.77,78.8,69,50,10.29,1602857079
189,otrado-kubanskoye,RU,45.24,40.84,74.8,42,37,3.53,1602857081
190,santona,ES,43.44,-3.46,57.99,71,75,10.29,1602857082
191,lompoc,US,34.64,-120.46,60.8,71,1,4.7,1602857083
192,san luis,AR,-33.3,-66.34,78.51,33,0,12.3,1602856889
193,virden,US,39.5,-89.77,42.01,66,0,3.0,1602857085
194,leh,IN,34.17,77.58,44.47,34,0,3.02,1602857086
195,new norfolk,AU,-42.78,147.06,42.01,68,100,2.44,1602857087
196,elko,US,41.0,-115.5,34.0,50,1,1.32,1602856823
197,amarante do maranhao,BR,-5.57,-46.74,97.52,33,1,5.08,1602857089
198,lavrentiya,RU,65.58,-171.0,38.84,93,100,29.42,1602857090
199,walvis bay,NA,-22.96,14.51,78.8,41,100,12.75,1602856861
200,quebo,GW,11.33,-14.93,92.46,58,100,3.11,1602857093
201,berlevag,NO,70.86,29.09,32.0,81,75,2.24,1602857094
202,ankang,CN,32.68,109.02,52.0,39,2,7.0,1602857095
203,port-gentil,GA,-0.72,8.78,84.2,66,75,16.11,1602857096
204,ayorou,NE,14.73,0.92,103.48,13,0,5.99,1602857097
205,povenets,RU,62.85,34.83,38.28,83,87,10.65,1602857098
206,basco,PH,20.45,121.97,81.91,81,100,23.4,1602857099
207,tomatlan,MX,19.93,-105.25,78.17,83,89,2.21,1602857101
208,vila,PT,42.03,-8.16,64.0,48,97,8.99,1602857102
209,whitehorse,CA,60.72,-135.05,23.0,92,90,16.11,1602857104
210,souillac,MU,-20.52,57.52,78.8,65,20,11.41,1602857106
211,korla,CN,41.76,86.15,49.93,44,0,2.39,1602857107
212,torbay,CA,47.67,-52.73,54.0,100,90,3.36,1602857108
213,tara,RU,56.89,74.37,47.7,59,33,13.71,1602857109
214,longonjo,AO,-12.91,15.25,80.6,51,75,16.11,1602857110
215,puerto ayora,EC,-0.74,-90.35,71.01,88,97,5.01,1602857112
216,otukpo,NG,7.19,8.13,85.91,70,54,2.68,1602857114
217,georgetown,MY,5.41,100.34,82.4,83,20,2.24,1602857116
218,russkaya polyana,UA,49.42,31.92,65.77,64,100,4.83,1602857117
219,laguna,US,38.42,-121.42,62.01,66,1,5.53,1602857118
220,kodiak,US,57.79,-152.41,30.2,80,1,6.93,1602857112
221,shubarshi,KZ,48.59,57.19,58.59,36,99,7.25,1602857120
222,tecoanapa,MX,16.52,-98.75,79.93,76,53,5.1,1602857121
223,chuy,UY,-33.7,-53.46,67.62,69,100,10.54,1602857122
224,panzhihua,CN,26.59,101.71,62.02,80,100,3.15,1602857123
225,lorengau,PG,-2.02,147.27,81.39,75,100,6.55,1602857124
226,namatanai,PG,-3.67,152.43,80.17,76,26,8.25,1602857127
227,kautokeino,NO,69.01,23.04,35.35,84,100,8.66,1602857128
228,labuan,MY,5.28,115.24,77.0,88,20,6.93,1602857129
229,mehamn,NO,71.04,27.85,37.4,69,75,6.93,1602857130
230,norman wells,CA,65.28,-126.83,19.4,79,75,13.87,1602857131
231,westport,US,41.14,-73.36,64.99,77,90,12.75,1602857078
232,galesong,ID,-5.32,119.37,78.8,88,40,5.82,1602857133
233,biak,ID,-0.91,122.88,78.22,82,99,3.38,1602857134
234,bilibino,RU,68.05,166.44,23.0,95,17,1.99,1602857135
235,minnedosa,CA,50.25,-99.84,14.0,78,20,10.29,1602857136
236,rosarito,MX,32.33,-117.03,66.2,63,1,4.7,1602857137
237,paamiut,GL,61.99,-49.67,42.46,78,100,31.05,1602857139
238,fortuna,US,40.6,-124.16,50.0,87,1,4.7,1602857104
239,quatre cocos,MU,-20.21,57.76,78.8,65,20,11.41,1602857142
240,pandamatenga,BW,-18.53,25.63,92.91,13,0,11.1,1602857143
241,araouane,ML,18.9,-3.53,102.47,8,0,12.19,1602857144
242,mataram,ID,-8.58,116.12,80.6,78,75,3.36,1602857145
243,balurghat,IN,25.22,88.77,82.24,70,0,2.35,1602856939
244,juazeiro,BR,-9.41,-40.5,86.0,48,19,10.29,1602857147
245,meadow lake,US,34.8,-106.54,48.2,39,1,16.11,1602857148
246,port macquarie,AU,-31.43,152.92,64.99,83,94,4.54,1602857149
247,vao,NC,-22.67,167.48,69.75,83,19,18.86,1602857152
248,aklavik,CA,68.22,-135.01,21.2,73,90,13.87,1602857153
249,belfast,GB,54.58,-5.93,53.6,62,60,10.29,1602857154
250,codrington,AU,-38.27,141.97,50.56,95,100,2.08,1602857155
251,mongo,TD,12.18,18.69,97.52,21,0,6.71,1602857156
252,qui nhon,VN,13.77,109.23,79.92,86,100,7.38,1602856984
253,shenjiamen,CN,29.96,122.3,63.45,83,100,16.17,1602857161
254,peniche,PT,39.36,-9.38,69.01,66,37,8.99,1602857162
255,saskylakh,RU,71.92,114.08,10.17,95,80,2.89,1602857163
256,grindavik,IS,63.84,-22.43,48.2,76,90,4.7,1602857164
257,tutoia,BR,-2.76,-42.27,88.45,56,49,13.96,1602857166
258,arman,RU,59.7,150.17,29.95,85,0,2.19,1602857167
259,mashhad,IR,36.3,59.61,62.6,29,0,6.93,1602857168
260,perth,AU,-31.93,115.83,64.4,52,0,9.17,1602856882
261,gibara,CU,21.11,-76.13,80.6,88,75,2.24,1602857170
262,yaroslavl,RU,57.63,39.87,41.0,75,40,6.71,1602857171
263,svetlogorsk,BY,52.63,29.73,52.14,73,36,4.97,1602857172
264,narsaq,GL,60.92,-46.05,53.6,30,40,19.46,1602857173
265,njombe,TZ,-9.33,34.77,69.33,58,54,10.63,1602857174
266,ketchikan,US,55.34,-131.65,42.8,93,20,10.29,1602857093
267,egvekinot,RU,66.32,-179.17,33.28,100,100,1.52,1602857176
268,roma,US,43.21,-75.46,48.2,87,90,5.59,1602857046
269,san cristobal,VE,7.77,-72.22,82.4,58,40,4.7,1602857178
270,half moon bay,US,37.46,-122.43,80.6,14,1,26.4,1602857180
271,divicani,BA,44.37,17.33,51.8,93,75,6.93,1602857181
272,habiganj,BD,24.38,91.42,86.0,84,20,3.56,1602857182
273,faya,SA,18.39,42.45,77.0,10,0,6.93,1602857183
274,miri,MY,4.41,114.01,82.4,83,40,4.7,1602857185
275,puerto del rosario,ES,28.5,-13.86,75.2,64,20,11.41,1602857186
276,santa maria,BR,-29.68,-53.81,75.52,55,0,9.69,1602857187
277,kulu,TR,39.1,33.08,75.18,24,0,1.79,1602857188
278,mattru,SL,7.62,-11.83,85.05,74,98,3.98,1602857189
279,te anau,NZ,-45.42,167.72,39.25,91,99,3.89,1602857191
280,mariental,NA,-24.63,17.97,98.91,9,2,7.02,1602857192
281,san pedro,PH,14.35,121.02,84.2,79,20,4.7,1602857193
282,dabakala,CI,8.37,-4.43,87.51,63,99,2.62,1602857194
283,yanliang,CN,34.66,109.23,53.01,100,93,4.47,1602857195
284,lufilufi,WS,-13.87,-171.6,77.0,100,90,5.82,1602857196
285,honningsvag,NO,70.98,25.97,37.4,69,75,6.93,1602857197
286,east london,ZA,-33.02,27.91,68.0,77,75,19.46,1602857199
287,iskateley,RU,67.68,53.15,30.4,94,100,4.45,1602857200
288,urucara,BR,-2.54,-57.76,95.9,37,60,5.28,1602857201
289,angoche,MZ,-16.23,39.91,78.89,70,7,12.5,1602857203
290,bereda,ES,43.27,-7.54,68.0,52,98,5.99,1602857204
291,chilliwack,CA,49.17,-121.94,48.0,96,100,2.1,1602857200
292,milyutinskaya,RU,48.63,41.67,68.45,38,85,7.38,1602857206
293,ibra,OM,22.69,58.53,81.57,16,0,12.88,1602857208
294,taksimo,RU,56.34,114.88,23.0,84,55,6.29,1602857209
295,minab,IR,27.15,57.08,89.6,21,0,9.17,1602857210
296,itacoatiara,BR,-3.14,-58.44,93.69,43,20,4.99,1602857211
297,the valley,AI,18.22,-63.06,86.0,88,75,14.99,1602857212
298,lubuagan,PH,17.35,121.17,67.44,94,95,0.78,1602857213
299,la romana,DO,18.43,-68.97,82.4,83,40,11.63,1602857214
300,mineiros,BR,-17.57,-52.55,87.28,42,45,4.32,1602857216
301,sao filipe,CV,14.9,-24.5,82.62,73,100,4.27,1602857217
302,changping,CN,40.22,116.22,64.99,71,0,1.99,1602857218
303,coahuayana,MX,18.73,-103.68,73.4,78,20,9.17,1602857219
304,palmerston north,NZ,-40.35,175.62,43.0,86,100,4.59,1602857220
305,erzin,TR,36.96,36.2,80.01,64,2,4.0,1602857221
306,samarai,PG,-10.62,150.67,78.13,86,19,12.68,1602857222
307,venice,US,27.1,-82.45,82.0,94,1,10.29,1602856937
308,vila velha,BR,-20.33,-40.29,80.01,61,7,11.41,1602857224
309,acarau,BR,-2.89,-40.12,89.06,51,76,18.16,1602857225
310,bantry,IE,51.68,-9.45,53.6,76,40,12.75,1602857228
311,damaturu,NG,11.75,11.96,99.57,20,0,8.95,1602857229
312,ustyuzhna,RU,58.84,36.43,37.36,82,69,6.98,1602857230
313,stribro,CZ,49.75,13.0,46.99,100,90,3.36,1602857024
314,san policarpo,PH,12.18,125.51,80.1,80,88,3.87,1602857232
315,chancay,PE,-11.57,-77.27,63.0,88,90,2.24,1602857233
316,marawi,PH,8.0,124.29,73.99,95,100,7.0,1602857235
317,flinders,AU,-34.58,150.86,61.0,78,99,1.01,1602857237
318,sibolga,ID,1.74,98.78,77.88,79,100,2.62,1602857238
319,epernay,FR,49.05,3.95,55.4,62,75,8.05,1602857239
320,beira,MZ,-19.84,34.84,78.8,69,20,12.75,1602857240
321,lubango,AO,-14.92,13.49,74.23,50,98,2.98,1602857241
322,kipini,KE,-2.53,40.53,84.2,62,75,12.75,1602857242
323,cooma,AU,-36.23,149.13,46.4,100,90,11.41,1602857243
324,klaksvik,FO,62.23,-6.59,44.6,81,99,2.24,1602857244
325,rabo de peixe,PT,37.8,-25.58,69.8,77,75,10.29,1602857246
326,rudbar,AF,30.15,62.6,66.79,22,0,8.08,1602857247
327,baker city,US,44.77,-117.83,42.01,79,1,6.93,1602857248
328,luderitz,NA,-26.65,15.16,69.71,53,0,9.95,1602857249
329,dubti,ET,11.74,41.09,99.27,19,23,9.17,1602857250
330,methven,NZ,-43.63,171.65,46.0,90,100,5.75,1602857251
331,pochutla,MX,15.74,-96.47,78.01,83,40,1.99,1602857252
332,broome,US,42.25,-75.83,48.99,93,90,8.05,1602857254
333,birobidzhan,RU,48.8,132.95,34.41,85,13,4.52,1602857255
334,krasnyye baki,RU,57.13,45.16,42.08,69,100,5.48,1602857256
335,bijie,CN,27.31,105.29,45.95,89,100,2.64,1602857257
336,muisne,EC,0.6,-80.03,75.11,88,100,12.06,1602857258
337,hami,CN,42.8,93.45,48.65,40,0,7.52,1602857259
338,atikokan,CA,48.76,-91.62,29.88,90,98,3.27,1602856983
339,portree,GB,57.41,-6.19,54.0,61,34,1.1,1602857261
340,saldanha,ZA,-33.01,17.94,77.0,38,0,12.75,1602857262
341,sur,OM,22.57,59.53,81.14,54,0,14.65,1602857265
342,bathsheba,BB,13.22,-59.52,87.8,70,40,17.22,1602857266
343,graaff-reinet,ZA,-32.25,24.53,86.0,20,0,5.01,1602857268
344,yulara,AU,-25.24,130.99,86.0,19,0,8.05,1602857269
345,vallenar,CL,-28.57,-70.76,74.19,34,1,4.88,1602857270
346,rio grande,BR,-32.03,-52.1,65.64,76,100,14.94,1602857042
347,vaitape,PF,-16.52,-151.75,79.18,78,35,8.34,1602857272
348,camocim,BR,-2.9,-40.84,91.17,47,17,14.85,1602857273
349,maxixe,MZ,-23.86,35.35,84.2,54,20,10.29,1602857274
350,romitan,UZ,39.93,64.38,68.0,30,0,6.93,1602857275
351,turan,VN,16.07,108.22,78.8,94,75,1.12,1602857277
352,samarinda,ID,-0.5,117.15,75.97,90,58,0.65,1602857278
353,nabire,ID,-3.37,135.48,77.0,87,83,2.86,1602857167
354,marienburg,PL,54.04,19.03,51.01,100,93,6.89,1602857281
355,dingle,PH,11.0,122.67,77.0,88,99,1.88,1602857282
356,onega,RU,63.91,38.14,38.01,88,100,16.58,1602857283
357,deniliquin,AU,-35.53,144.97,59.0,95,100,6.76,1602857284
358,gazojak,TM,41.19,61.4,63.39,27,0,7.96,1602857286
359,davila,PH,18.47,120.58,81.68,79,56,22.19,1602857288
360,bethel,US,41.37,-73.41,59.0,82,90,5.82,1602857289
361,gewane,ET,10.17,40.65,96.33,19,20,10.74,1602857290
362,kant,IN,27.8,79.8,81.93,33,0,5.41,1602857291
363,hashtrud,IR,37.48,47.05,63.68,29,87,4.7,1602857292
364,cranendonck,NL,51.28,5.58,55.0,71,40,6.93,1602857293
365,tuatapere,NZ,-46.13,167.68,43.0,82,96,3.0,1602857294
366,luanda,AO,-8.84,13.23,80.6,78,75,11.41,1602857048
367,kaeo,NZ,-35.1,173.78,48.99,91,91,1.01,1602857296
368,clyde river,CA,70.47,-68.59,32.0,95,90,9.17,1602857297
369,piacabucu,BR,-10.41,-36.43,82.89,61,25,10.94,1602857298
370,mackay,AU,-21.15,149.2,71.6,60,40,14.99,1602857299
371,kruisfontein,ZA,-34.0,24.73,73.99,68,51,13.0,1602857300
372,nome,US,64.5,-165.41,37.4,93,90,25.28,1602857301
373,sangar,RU,63.92,127.47,19.56,92,100,14.05,1602857303
374,houma,US,29.6,-90.72,68.0,94,90,14.99,1602857096
375,bayan,CN,46.08,127.4,44.01,38,0,7.07,1602857305
376,provideniya,RU,64.38,-173.3,39.31,94,100,16.82,1602857306
377,igarka,RU,67.47,86.58,24.19,98,98,6.38,1602857307
378,caborca,MX,30.58,-111.1,69.64,27,2,2.91,1602857308
379,shetpe,KZ,44.17,52.12,61.88,27,18,6.53,1602857309
380,port augusta,AU,-32.5,137.77,61.0,100,90,11.41,1602857310
381,nkhata bay,MW,-11.61,34.29,81.63,55,1,7.38,1602857311
382,naukot,PK,24.86,69.4,94.01,18,98,7.45,1602857312
383,coari,BR,-4.08,-63.14,84.76,66,78,2.04,1602857313
384,keokuk,US,40.4,-91.38,42.01,69,75,8.05,1602857314
385,nuevo ideal,MX,24.89,-105.07,60.37,54,7,2.66,1602857315
386,magaria,NE,13.0,8.91,101.34,15,37,11.77,1602857317
387,calabozo,VE,8.92,-67.43,81.34,83,9,7.31,1602857318
388,north bend,US,43.41,-124.22,54.0,93,1,6.93,1602857319
389,kety,PL,49.88,19.22,46.0,3,100,5.99,1602857204
390,lewistown,US,40.6,-77.57,51.01,81,40,4.7,1602857321
391,port keats,AU,-14.25,129.55,82.38,74,0,10.74,1602857322
392,pachmarhi,IN,22.47,78.43,68.77,100,90,2.73,1602857323
393,merauke,ID,-8.47,140.33,77.29,78,100,13.29,1602857324
394,ust-nera,RU,64.57,143.2,16.14,90,98,4.83,1602857326
395,broken hill,AU,-31.95,141.43,68.0,60,72,13.87,1602857327
396,taguatinga,BR,-12.39,-46.57,101.07,14,0,6.2,1602857328
397,griffith,US,41.53,-87.42,41.0,64,1,6.93,1602857329
398,cascavel,BR,-24.96,-53.46,78.8,65,40,9.17,1602857301
399,flin flon,CA,54.77,-101.86,24.8,62,90,12.75,1602857332
400,plettenberg bay,ZA,-34.05,23.37,70.43,66,1,17.9,1602857333
401,avera,US,33.19,-82.53,68.0,94,1,9.17,1602857334
402,srednekolymsk,RU,67.45,153.68,29.68,99,100,4.85,1602857335
403,saint-honore,CA,48.53,-71.08,48.99,93,90,4.97,1602857336
404,wewak,PG,-3.55,143.63,78.21,85,100,7.16,1602857337
405,kulhudhuffushi,MV,6.62,73.07,82.38,76,83,17.87,1602857338
406,baybay,PH,10.68,124.83,78.75,82,100,3.31,1602857339
407,aleksandrov gay,RU,50.15,48.57,64.51,56,75,7.78,1602857340
408,lagunas,PE,-5.23,-75.68,86.81,58,48,2.57,1602857341
409,tessalit,ML,20.2,1.01,101.48,8,0,6.46,1602857343
410,pacific grove,US,36.62,-121.92,69.01,48,1,3.36,1602857345
411,nelson bay,AU,-32.72,152.15,66.0,88,90,4.7,1602857346
412,khomutovo,RU,52.47,104.4,39.2,55,40,8.95,1602857347
413,nantucket,US,41.28,-70.1,64.4,88,75,16.11,1602857348
414,black river,JM,18.03,-77.85,86.0,74,20,6.93,1602857349
415,tongren,CN,27.72,109.19,57.07,86,100,3.69,1602857181
416,porto empedocle,IT,37.29,13.53,62.01,73,31,5.99,1602857352
417,sabzevar,IR,36.21,57.68,71.6,15,0,6.93,1602857353
418,touros,BR,-5.2,-35.46,86.0,55,75,12.75,1602857354
419,rangapara,IN,26.82,92.65,78.75,76,0,3.0,1602857345
420,krasnoselkup,RU,65.7,82.47,29.53,99,100,11.32,1602857356
421,navalmoral de la mata,ES,39.89,-5.54,63.0,41,15,1.01,1602857357
422,ust-tsilma,RU,65.44,52.15,30.79,98,100,3.4,1602857358
423,chase,CA,50.82,-119.69,41.0,97,100,2.98,1602857360
424,alofi,NU,-19.06,-169.92,75.2,88,70,8.05,1602857115
425,bell ville,AR,-32.63,-62.69,80.01,42,0,5.01,1602857362
426,salonta,RO,46.8,21.65,57.2,87,75,11.41,1602857363
427,kota bahru,MY,6.13,102.24,82.4,88,20,3.15,1602857364
428,umm kaddadah,SD,13.6,26.69,98.33,9,0,10.27,1602857366
429,alvorada,BR,-12.48,-49.12,100.45,27,29,5.59,1602857367
430,seoul,KR,37.57,126.98,51.8,76,1,3.02,1602857368
431,skibbereen,IE,51.55,-9.27,50.0,87,75,10.29,1602857370
432,fairbanks,US,64.84,-147.72,9.0,91,1,2.26,1602857206
433,sigli,ID,5.38,95.96,81.27,76,42,6.29,1602857373
434,imbituba,BR,-28.24,-48.67,73.4,49,40,12.75,1602857321
435,simoes,BR,-7.6,-40.82,97.65,17,20,11.34,1602857375
436,tokur,RU,53.13,132.9,24.21,93,98,5.37,1602857376
437,cayenne,GF,4.93,-52.33,87.8,58,9,6.93,1602857330
438,ganta,LR,7.3,-8.53,86.27,57,42,4.12,1602857378
439,eyl,SO,7.98,49.82,83.91,67,68,20.87,1602857379
440,boden,SE,65.83,21.69,42.8,75,5,8.05,1602857380
441,vega de alatorre,MX,20.03,-96.63,78.17,81,25,5.21,1602857382
442,bisira,PA,8.52,-81.71,66.0,95,5,1.74,1602857383
443,przasnysz,PL,53.02,20.88,48.2,66,40,11.41,1602857384
444,olafsvik,IS,64.89,-23.71,47.01,78,64,1.1,1602857385
445,mala,PE,-12.66,-76.63,67.93,68,11,6.13,1602857387
446,palmer,US,42.16,-72.33,61.0,87,90,5.82,1602857388
447,zabaykalsk,RU,49.63,117.32,38.64,75,82,17.67,1602857389
448,chulumani,BO,-16.41,-67.53,62.8,79,97,3.49,1602857390
449,kapoeta,SS,4.77,33.59,91.2,36,94,8.21,1602857391
450,kommunisticheskiy,RU,61.68,64.48,45.73,88,100,12.66,1602857392
451,kismayo,SO,-0.36,42.55,81.0,72,3,15.21,1602857394
452,woodward,US,36.43,-99.39,48.99,49,90,5.82,1602857395
453,conceicao do araguaia,BR,-8.26,-49.26,100.02,30,0,5.66,1602857238
454,nyurba,RU,63.28,118.33,20.68,86,1,11.9,1602857397
455,biga,TR,40.23,27.24,84.0,34,0,10.29,1602857398
456,omagh,GB,54.6,-7.3,55.4,66,20,8.05,1602857400
457,veinticinco de mayo,AR,-35.43,-60.17,73.0,68,0,4.0,1602857401
458,haines junction,CA,60.75,-137.51,25.41,91,100,5.68,1602857402
459,pimentel,PE,-6.84,-79.93,64.4,77,90,11.41,1602857405
460,port lincoln,AU,-34.73,135.87,53.91,81,100,14.09,1602857406
461,toamasina,MG,-18.17,49.38,80.6,74,20,5.82,1602857408
462,vitoria,BR,-20.32,-40.34,80.01,61,11,11.41,1602857250
463,yeppoon,AU,-23.13,150.73,68.0,77,0,5.82,1602857410
464,kaitangata,NZ,-46.28,169.85,44.01,83,47,4.0,1602857411
465,paita,PE,-5.09,-81.11,66.2,82,75,16.11,1602857412
466,tabou,CI,4.42,-7.35,80.71,79,90,12.15,1602857413
467,surt,LY,31.21,16.59,79.59,77,31,17.74,1602857414
468,lotofaga,WS,-13.98,-171.86,77.0,100,90,5.82,1602857416
469,savinka,RU,50.08,47.1,64.67,50,61,7.81,1602857418
470,jennings,US,38.72,-90.26,46.0,64,1,3.36,1602857419
471,nassau,US,40.75,-73.58,63.0,76,83,1.99,1602857351
472,henties bay,NA,-22.12,14.28,64.99,83,73,8.99,1602857421
473,americus,US,32.07,-84.23,66.2,77,1,6.93,1602857422
474,zhaotong,CN,27.32,103.72,43.65,88,100,2.82,1602857423
475,sitka,US,57.05,-135.33,48.2,66,90,8.05,1602857424
476,karratha,AU,-20.74,116.85,72.52,64,0,17.22,1602857426
477,kloulklubed,PW,7.04,134.26,77.0,94,75,5.61,1602857427
478,rorvik,NO,64.86,11.24,46.4,93,75,11.41,1602857428
479,toora-khem,RU,52.47,96.11,32.32,96,49,3.2,1602857429
480,destin,US,30.39,-86.5,71.6,94,75,10.29,1602857430
481,chumikan,RU,54.72,135.31,37.96,72,95,24.34,1602857431
482,hovd,MN,48.01,91.64,38.07,61,67,0.69,1602857432
483,mount gambier,AU,-37.83,140.77,55.4,100,90,1.12,1602857325
484,esso,RU,55.93,158.7,25.07,91,93,4.18,1602857434
485,hamilton,US,39.18,-84.53,46.0,64,0,3.94,1602857435
486,mathathane,BW,-22.27,28.75,96.4,16,0,19.28,1602857436
487,hearst,CA,49.68,-83.67,33.28,88,0,6.85,1602857437
488,asau,RO,46.43,26.4,61.0,83,64,2.89,1602857438
489,redlands,US,34.06,-117.18,73.99,26,5,5.01,1602857440
490,nemuro,JP,43.32,145.57,51.08,62,99,5.95,1602857441
491,coihaique,CL,-45.58,-72.07,53.6,62,40,23.04,1602857442
492,tual,ID,-5.67,132.75,82.13,81,43,18.03,1602857229
493,islamkot,PK,24.7,70.18,95.2,35,43,9.19,1602857444
494,ancud,CL,-41.87,-73.82,61.0,81,74,4.7,1602857445
495,springbok,ZA,-29.66,17.89,91.02,12,0,18.23,1602857447
496,picui,BR,-6.51,-36.35,91.54,25,96,15.17,1602857448
497,victoria,HK,22.29,114.16,80.01,79,34,1.99,1602857352
498,cap malheureux,MU,-19.98,57.61,75.99,69,3,7.0,1602857450
499,little current,CA,45.98,-81.92,41.0,66,20,8.05,1602857451
500,nouadhibou,MR,20.93,-17.03,98.6,20,0,12.75,1602857452
501,magway,MM,20.15,94.92,79.93,82,5,3.83,1602857453
502,talikota,IN,16.48,76.32,76.5,81,9,10.78,1602857455
503,chimbote,PE,-9.09,-78.58,66.16,75,75,8.32,1602857456
504,zhezkazgan,KZ,47.8,67.71,55.76,38,0,2.73,1602857458
505,maceio,BR,-9.67,-35.74,84.2,54,75,10.29,1602857459
506,ghanzi,BW,-21.57,21.78,94.37,12,9,16.69,1602857461
507,denpasar,ID,-8.65,115.22,80.6,78,20,5.82,1602857462
508,dobreni,RO,46.98,26.42,66.0,18,62,3.98,1602857464
509,tanete,ID,-3.94,119.78,76.01,90,100,4.72,1602857465
510,oussouye,SN,12.48,-16.55,89.6,75,75,2.24,1602857466
511,heyang,CN,26.1,107.47,52.45,91,100,6.91,1602857467
512,huarmey,PE,-10.07,-78.15,68.04,70,19,7.74,1602857469
513,lyuban,BY,52.8,28.0,51.76,72,61,4.88,1602857470
514,turukhansk,RU,65.82,87.98,27.97,98,100,9.84,1602857472
515,snihurivka,UA,47.08,32.81,69.8,68,40,11.18,1602857473
516,krasnoarmeysk,RU,51.02,45.7,64.0,43,100,1.99,1602857474
517,mazsalaca,LV,57.86,25.05,41.0,71,100,4.0,1602857475
518,esperance,AU,-33.87,121.9,50.0,93,0,6.93,1602857476
519,dom pedrito,BR,-30.98,-54.67,73.11,64,0,10.29,1602857477
520,police,PL,53.55,14.57,53.01,89,100,8.03,1602857478
521,nhulunbuy,AU,-12.23,136.77,77.0,78,100,4.7,1602857479
522,kaseda,JP,31.42,130.32,66.63,90,100,11.63,1602857480
523,chake chake,TZ,-5.25,39.77,81.79,66,0,11.07,1602857482
524,gamba,GA,-2.65,10.0,79.38,71,88,8.7,1602857483
525,bahia blanca,AR,-38.72,-62.27,78.03,44,0,14.14,1602857282
526,port blair,IN,11.67,92.75,81.1,81,17,9.06,1602857487
527,bonthe,SL,7.53,-12.51,84.02,71,63,9.69,1602857488
528,remanso,BR,-9.62,-42.08,86.59,40,9,12.77,1602857490
529,richards bay,ZA,-28.78,32.04,72.16,70,94,10.22,1602857491
530,salisbury,GB,51.07,-1.8,54.0,62,75,10.29,1602857379
531,verkhneuralsk,RU,53.88,59.21,59.0,26,75,11.18,1602857493
532,havoysund,NO,71.0,24.66,37.4,69,75,6.93,1602857494
533,sulangan,PH,11.14,123.72,84.22,72,99,5.99,1602857495
534,gyor,HU,47.68,17.64,46.4,93,90,11.41,1602857402
535,wolbrom,PL,50.38,19.76,44.01,97,100,3.0,1602857497
536,beloha,MG,-25.17,45.05,75.18,66,0,18.39,1602857499
537,jining,CN,35.41,116.58,55.54,39,0,5.37,1602857500
538,saa,CM,4.37,11.45,77.88,75,87,0.69,1602857501
539,brejo,BR,-3.68,-42.75,99.59,33,44,4.0,1602857502
540,dekar,BW,-21.53,21.93,94.19,13,9,16.06,1602857503
541,boromo,BF,11.75,-2.93,98.78,28,4,5.91,1602857505
542,kitimat,CA,54.05,-128.65,39.0,95,100,6.11,1602857506
543,adrar,MR,20.5,-10.07,98.02,10,0,9.91,1602857508
544,taoudenni,ML,22.68,-3.98,103.19,9,0,13.56,1602857509
545,saucillo,MX,28.02,-105.28,60.93,43,5,6.06,1602857510
546,kalmunai,LK,7.42,81.82,81.77,79,18,6.24,1602857511
547,sikonge,TZ,-5.63,32.77,86.0,35,75,12.75,1602857512
548,llallagua,BO,-18.42,-66.63,51.8,54,40,4.7,1602857513
549,verkh-chebula,RU,56.03,87.62,34.02,87,100,7.67,1602857515
550,potsdam,DE,52.4,13.07,53.01,98,100,8.16,1602857516
551,vaasa,FI,63.1,21.62,46.4,65,0,6.93,1602857419
552,celestun,MX,20.87,-90.4,79.05,75,0,4.92,1602857520
553,betafo,MG,-19.83,46.85,72.28,57,90,4.5,1602857521
554,wagar,SD,16.15,36.2,101.32,11,0,6.82,1602857522
555,yekaterinoslavka,RU,50.37,129.11,32.25,88,0,12.01,1602857523
556,banda aceh,ID,5.56,95.32,81.81,72,60,12.03,1602857242
557,locri,IT,38.24,16.26,71.6,49,20,13.87,1602857525
558,cananeia,BR,-25.01,-47.93,71.82,65,57,10.89,1602857526
559,orotukan,RU,62.27,151.7,25.02,95,100,3.09,1602857527
560,chapais,CA,49.78,-74.85,33.8,100,90,6.93,1602857528
561,ponnampet,IN,12.15,75.93,78.8,94,20,4.7,1602857529
562,zyryanka,RU,65.75,150.85,25.45,98,100,17.38,1602857532
563,parrita,CR,9.52,-84.32,71.6,77,20,5.82,1602857533
564,antipino,RU,57.11,65.76,59.0,44,42,13.42,1602857534
565,ola,RU,59.58,151.28,31.24,88,0,1.88,1602857536
566,rock sound,BS,24.9,-76.2,82.94,79,29,11.79,1602857537
567,rocha,UY,-34.48,-54.33,70.16,62,19,9.53,1602857344
568,staryy nadym,RU,65.61,72.68,31.66,99,100,15.35,1602857539
569,grandview,US,38.89,-94.53,45.0,56,1,6.93,1602857540
570,raduzhnyy,RU,62.1,77.47,36.79,90,100,14.12,1602857542
571,koulikoro,ML,14.0,-7.75,100.0,19,43,8.39,1602857543
572,zhigansk,RU,66.77,123.37,21.79,96,100,9.98,1602857544
573,camacha,PT,33.08,-16.33,69.8,64,20,11.41,1602857546
574,auki,SB,-8.77,160.7,77.41,83,6,3.87,1602857547
575,hirara,JP,24.8,125.28,79.45,77,25,15.79,1602857319
576,zhanaozen,KZ,43.3,52.8,58.98,29,0,3.98,1602857549
577,hillsboro,US,45.52,-122.99,45.0,100,75,0.56,1602857263
578,sale,MA,34.04,-6.82,69.8,43,40,6.93,1602857552
579,talnakh,RU,69.49,88.4,23.0,92,40,8.95,1602857554
580,santa marta,CO,11.24,-74.2,87.01,71,75,5.99,1602857555
581,novoagansk,RU,61.94,76.66,37.99,93,100,14.16,1602857556
582,kiama,AU,-34.68,150.87,61.0,86,99,3.27,1602857557
583,neya,RU,58.3,43.87,39.81,76,100,4.43,1602857558
584,bergen,NO,60.39,5.33,55.0,54,0,4.7,1602857559
585,santiago de cuba,CU,20.02,-75.82,84.2,66,20,5.82,1602857560
586,camana,PE,-16.62,-72.71,69.44,61,5,8.03,1602857561
587,kristianstad,SE,56.03,14.15,53.01,71,75,4.7,1602857562
588,ust-kut,RU,56.79,105.77,25.81,93,100,6.02,1602857563
589,ahipara,NZ,-35.17,173.17,49.14,85,8,2.21,1602857303
590,stornoway,GB,58.21,-6.39,53.01,76,40,8.05,1602857498
591,itoman,JP,26.12,127.67,78.8,65,75,9.17,1602857567
592,kiunga,PG,-6.12,141.29,73.26,97,100,2.73,1602857568
593,verkhnyaya maksakovka,RU,61.63,50.97,32.0,97,75,6.71,1602857569
594,akcaabat,TR,41.02,39.57,71.6,83,1,4.7,1602857570
595,lasa,IT,46.62,10.7,59.0,80,40,8.05,1602857571
